[
    {
        "ciudad": "Bilbao",
        "nombre": "Itsasmuseoa",
        "imagen": "imagenes/Bilbao/itsasmuseoa.jpg",
        "descripcion": "Museo del mar con actividades para toda la familia.",
        "edad": "Todas las edades",
        "precio": "Gratis menores de 6 años",
        "ubicacion": "Muelle Ramón de la Sota, 1, Bilbao",
        "enlace": "https://itsasmuseum.eus/actividades-infantiles-y-familias/",
        "lat": 43.2687,
        "lng": -2.9399
    },
    {
        "ciudad": "Bilbao",
        "nombre": "Parque Doña Casilda",
        "imagen": "imagenes/Bilbao/donacasilda.jpg",
        "descripcion": "Un parque con áreas de juegos y un estanque con patos.",
        "edad": "Todas las edades",
        "precio": "Gratis",
        "ubicacion": "Bilbao, España",
        "enlace": "https://www.bilbao.eus",
        "lat": 43.2631,
        "lng": -2.9416
    },
    {
        "ciudad": "Bilbao",
        "nombre": "Bosque de Oma",
        "imagen": "imagenes/Bilbao/oma.jpeg",
        "descripcion": "Un bosque con árboles pintados por Agustín Ibarrola.",
        "edad": "Todas las edades",
        "precio": "Gratis",
        "ubicacion": "Kortezubi, España",
        "enlace": "https://www.bosquedeoma.com/",
        "lat": 43.3891,
        "lng": -2.6153
    },
    {
        "ciudad": "Bilbao",
        "nombre": "Museo Guggenheim",
        "imagen": "imagenes/Bilbao/guggenheim.jpg",
        "descripcion": "Un museo de arte contemporáneo con exposiciones interactivas.",
        "edad": "Todas las edades",
        "precio": "16€ por persona",
        "ubicacion": "Av. Abandoibarra Etorb., 2, Bilbao",
        "enlace": "https://www.guggenheim-bilbao.eus/aprende/en-familia",
        "lat": 43.2630,
        "lng": -2.9349
    },
    {
        "ciudad": "San Sebastián",
        "nombre": "Monte Urgull",
        "imagen": "imagenes/Donosti/monteurgull.jpg",
        "descripcion": "Una colina con vistas panorámicas y un castillo.",
        "edad": "Todas las edades",
        "precio": "Gratis",
        "ubicacion": "San Sebastián, España",
        "enlace": "https://www.hirikids.com/descubre-el-monte-urgull-con-ninos/",
        "lat": 43.3183,
        "lng": -1.9812
    },
    {
        "ciudad": "San Sebastián",
        "nombre": "Aquarium",
        "imagen": "imagenes/Donosti/aquarium.jpeg",
        "descripcion": "Un acuario con una gran variedad de especies marinas.",
        "edad": "Todas las edades",
        "precio": "15€ por persona",
        "ubicacion": "Plaza de Carlos Blasco Imaz, 1, Donostia",
        "enlace": "https://aquariumss.com/",
        "lat": 43.3223,
        "lng": -1.9855
    },
    {
        "ciudad": "San Sebastián",
        "nombre": "Parque de Atracciones Monte Igueldo",
        "imagen": "imagenes/Donosti/monteigueldo.jpeg",
        "descripcion": "Un parque de atracciones con vistas a la ciudad.",
        "edad": "Todas las edades",
        "precio": "Gratis menores de 6 años",
        "ubicacion": "Paseo del Faro, 15, Donostia",
        "enlace": "https://www.monteigueldo.es/",
        "lat": 43.3165,
        "lng": -2.0172
    },
    {
        "ciudad": "San Sebastián",
        "nombre": "Playa de la Concha",
        "imagen": "imagenes/Donosti/laconcha.jpg",
        "descripcion": "Una playa con aguas tranquilas y arena fina.",
        "edad": "Todas las edades",
        "precio": "Gratis",
        "ubicacion": "Donostia, España",
        "enlace": "https://www.donostiaeuskaltegiak.eus/",
        "lat": 43.3183,
        "lng": -1.9812
    },
    {
        "ciudad": "San Sebastián",
        "nombre": "Museo de la Ciencia Eureka!",
        "imagen": "imagenes/Donosti/eureka.jpg",
        "descripcion": "Un museo interactivo de ciencia y tecnología.",
        "edad": "Todas las edades",
        "precio": "10€ por persona",
        "ubicacion": "Paseo de Mikeletegi, 43, Donostia",
        "enlace": "https://www.eureka.eus/",
        "lat": 43.3192,
        "lng": -1.9732
    },
    {
        "ciudad": "San Sebastián",
        "nombre": "Albaola Itsas Kultur Faktoria",
        "imagen": "imagenes/Donosti/albaola.jpeg",
        "descripcion": "Un centro cultural dedicado a la construcción de barcos.",
        "edad": "Todas las edades",
        "precio": "10€ por persona",
        "ubicacion": "Ondartxo, 1, Pasaia",
        "enlace": "https://www.albaola.com/",
        "lat": 43.3192,
        "lng": -1.9732
    },
    {
        "ciudad": "San Sebastián",
        "nombre": "Parque Aiete",
        "imagen": "imagenes/Donosti/parqueaiete.jpeg",
        "descripcion": "Un parque con jardines y un palacio.",
        "edad": "Todas las edades",
        "precio": "Gratis",
        "ubicacion": "San Sebastián, España",
        "enlace": "https://www.donostiasecreta.com/el-parque-de-aiete-de-donostia-san-sebastian/",
        "lat": 43.3192,
        "lng": -1.9732
    },
    {
        "ciudad": "Vitoria",
        "nombre": "Parque de la Florida",
        "imagen": "imagenes/Vitoria/parqueFlorida.jpeg",
        "descripcion": "Un parque con jardines y áreas de juegos.",
        "edad": "Todas las edades",
        "precio": "Gratis",
        "ubicacion": "Vitoria-Gasteiz, España",
        "enlace": "https://www.vitoria-gasteiz.org/",
        "lat": 42.8467,
        "lng": -2.6711
    },
    {
        "ciudad": "Vitoria",
        "nombre": "Museo de Ciencias Naturales",
        "imagen": "imagenes/Vitoria/museocienciasnaturales.jpeg",
        "descripcion": "Un museo con exposiciones sobre la naturaleza y la ciencia.",
        "edad": "Todas las edades",
        "precio": "5€ por persona",
        "ubicacion": "Calle de la Paz, 5, Vitoria-Gasteiz",
        "enlace": "https://www.museodecienciasnaturales.com/",
        "lat": 42.8467,
        "lng": -2.6711
    },
    {
        "ciudad": "Santander",
        "nombre": "Palacio de la Magdalena",
        "imagen": "imagenes/Santander/palaciomagdalena.jpg",
        "descripcion": "Un palacio con jardines y vistas al mar.",
        "edad": "Todas las edades",
        "precio": "Gratis",
        "ubicacion": "Avenida de la Reina Victoria, s/n, Santander",
        "enlace": "https://www.santander.es/",
        "lat": 43.4653,
        "lng": -3.7822
    },
    {
        "ciudad": "Santander",
        "nombre": "Centro Botín",
        "imagen": "imagenes/Santander/centrobotin.jpg",
        "descripcion": "Un centro de arte contemporáneo con actividades para niños.",
        "edad": "Todas las edades",
        "precio": "10€ por persona",
        "ubicacion": "Paseo de Pereda, 40, Santander",
        "enlace": "https://www.centrobotin.org/proximas-actividades-familias//",
        "lat": 43.4653,
        "lng": -3.7822
    },
    {
        "ciudad": "Santander",
        "nombre": "Museo Marítimo del Cantábrico",
        "imagen": "imagenes/Santander/museomaritimodelcantabrico.jpeg",
        "descripcion": "Un museo con exposiciones sobre la vida marina.",
        "edad": "Todas las edades",
        "precio": "6€ por persona",
        "ubicacion": "Avenida de la Reina Victoria, 4, Santander",
        "enlace": "https://www.museomaritimocantabrico.com/",
        "lat": 43.4653,
        "lng": -3.7822
    },
    {
        "ciudad": "Santander",
        "nombre": "Parque de la Naturaleza de Cabárceno",
        "imagen": "imagenes/Santander/cabarceno.webp",
        "descripcion": "Un parque con animales en semilibertad.",
        "edad": "Todas las edades",
        "precio": "30€ por persona",
        "ubicacion": "Cabárceno, España",
        "enlace": "https://www.parquedecabarceno.com/",
        "lat": 43.3667,
        "lng": -3.8833
    },
    {
        "ciudad": "Santander",
        "nombre": "Playa del Sardinero",
        "imagen": "imagenes/Santander/sardinero.jpg",
        "descripcion": "Una playa con aguas tranquilas y arena fina.",
        "edad": "Todas las edades",
        "precio": "Gratis",
        "ubicacion": "Santander, España",
        "enlace": "https://turismodecantabria.com/playas/playa-primera-del-sardinero/",
        "lat": 43.4653,
        "lng": -3.7834
    },
    {
        "ciudad": "Santander",
        "nombre": "Parque de las Llamas",
        "imagen": "imagenes/Santander/parquelasllamas.jpg",
        "descripcion": "Un parque con áreas de juegos y un lago.",
        "edad": "Todas las edades",
        "precio": "Gratis",
        "ubicacion": "Santander, España",
        "enlace": "https://www.cantabriarural.com/paisajes/parque-de-las-llamas.html",
        "lat": 43.4653,
        "lng": -3.7822
    },
    {
        "ciudad": "Santander",
        "nombre": "Museo de Prehistoria y Arqueología",
        "imagen": "imagenes/Santander/museoprehistoriacantabria.jpg",
        "descripcion": "Un museo con exposiciones sobre la prehistoria y la arqueología.",
        "edad": "Todas las edades",
        "precio": "5€ por persona",
        "ubicacion": "Calle de los Jardines, 2, Santander",
        "enlace": "https://www.santander.es/servicios-ciudadano/areas-tematicas/museos-centros-culturales/museo-prehistoria-arqueologia-cantabria-mupac",
        "lat": 43.4653,
        "lng": -3.7822
    },
    {
        "ciudad": "Logroño",
        "nombre": "Parque del Ebro",
        "imagen": "imagenes/Logroño/parquedelebro.jpeg",
        "descripcion": "Parque amplio con zonas verdes, juegos infantiles y vistas al río.",
        "edad": "Todas las edades",
        "precio": "Gratis",
        "ubicacion": "Logroño, España",
        "enlace": "https://lariojaturismo.com/lugar-de-interes/parque-del-ebro/560c149f-33df-4ca0-816a-e05f5a4d7b6e",
        "lat": 42.4722,
        "lng": -2.4545
    },
    {
        "ciudad": "Logroño",
        "nombre": "Museo de La Rioja",
        "imagen": "imagenes/Logroño/museolarioja.jpeg",
        "descripcion": "Museo con historia y cultura riojana adaptado a visitas familiares.",
        "edad": "Todas las edades",
        "precio": "Gratis",
        "ubicacion": "Calle San Agustín, 23, Logroño",
        "enlace": "https://www.museodelarioja.es/",
        "lat": 42.4656,
        "lng": -2.4481
    },
    {
        "ciudad": "Logroño",
        "nombre": "Casa de las Ciencias",
        "imagen": "imagenes/Logroño/casadelasciencias.jpg",
        "descripcion": "Centro interactivo de ciencia y experimentación para niños.",
        "edad": "Todas las edades",
        "precio": "Gratis",
        "ubicacion": "Calle del Ebro, 1, Logroño",
        "enlace": "https://casadelasciencias.logrono.es/programacion-de-actividades",
        "lat": 42.4714,
        "lng": -2.4567
    },
    {
        "ciudad": "Pamplona",
        "nombre": "Parque de la Taconera",
        "imagen": "imagenes/Pamplona/parquetaconera.jpg",
        "descripcion": "Parque histórico con pequeños animales y jardines.",
        "edad": "Todas las edades",
        "precio": "Gratis",
        "ubicacion": "Pamplona, España",
        "enlace": "https://www.pamplona.es/turismo/verde/taconera",
        "lat": 42.8170,
        "lng": -1.6475
    },
    {
        "ciudad": "Pamplona",
        "nombre": "Planetario de Pamplona",
        "imagen": "imagenes/Pamplona/planetario.jpeg",
        "descripcion": "Proyecciones astronómicas y actividades educativas para niños.",
        "edad": "Desde 4 años",
        "precio": "6€ por persona",
        "ubicacion": "Calle Sancho Ramírez, s/n, Pamplona",
        "enlace": "https://www.pamplonetario.org/es/publico-infantil",
        "lat": 42.8056,
        "lng": -1.6519
    },
    {
        "ciudad": "Pamplona",
        "nombre": "Ciudadela de Pamplona",
        "imagen": "imagenes/Pamplona/ciudadela.jpeg",
        "descripcion": "Antigua fortificación con jardines y actividades culturales.",
        "edad": "Todas las edades",
        "precio": "Gratis",
        "ubicacion": "Avenida del Ejército, Pamplona",
        "enlace": "https://www.pamplona.es/turismo/parqueciudadela",
        "lat": 42.8128,
        "lng": -1.6480
    }
]